     2.11           OBSERVATION DATA    M (MIXED)           RINEX VERSION / TYPE
teqc  2018Dec12                         20190103 11:53:57UTCPGM / RUN BY / DATE
Linux2.6.32-573.12.1.el6.x86_64|x86_64|gcc|Win64-MinGW64|=+ COMMENT
teqc  2018Dec12                         20190103 11:53:56UTCCOMMENT
teqc  2016Apr1      bjfs                20180504 00:25:03UTCCOMMENT
Linux 2.4.21-27.ELsmp|Opteron|gcc|Linux x86_64|=+           COMMENT
BIT 2 OF LLI FLAGS DATA COLLECTED UNDER A/S CONDITION       COMMENT
BJFS                                                        MARKER NAME
21601M001                                                   MARKER NUMBER
GNSS Observer       CASM                                    OBSERVER / AGENCY
5310K42306          TRIMBLE NETR9       4.85                REC # / TYPE / VERS
5317361110          TRM59900.00     SCIS                    ANT # / TYPE
 -2148744.5726  4426641.4062  4044655.8548                  APPROX POSITION XYZ
        0.0465        0.0000        0.0000                  ANTENNA: DELTA H/E/N
     1     1                                                WAVELENGTH FACT L1/2
     5    L1    L2    C1    P1    P2                        # / TYPES OF OBSERV
    18                                                      LEAP SECONDS
 SNR is mapped to RINEX snr flag value [0-9]                COMMENT
  L1 & L2: min(max(int(snr_dBHz/6), 0), 9)                  COMMENT
teqc edited: all GLONASS satellites excluded                COMMENT
  2018     5     3     0     0    0.0000000     GPS         TIME OF FIRST OBS
                                                            END OF HEADER
 18  5  3  0  0  0.0000000  0 10G29G26G10G32G25G12G14G22G31G03
 127402992.759 6  99275077.87243  24243982.688                    24243988.094
 121539034.349 7  94705779.56844  23128106.172                    23128114.098
 120423135.990 7  93836265.91044  22915770.570                    22915778.602
 107984865.920 8  84144108.90747  20548843.383                    20548850.352
 110895072.696 7  86411779.08246  21102632.453                    21102639.777
 124826848.408 7  97267686.41743  23753761.547                    23753766.324
 109002243.231 8  84936817.79246  20742432.570                    20742437.055
 122096357.753 7  95140016.19744  23234162.602                    23234165.215
 108215818.299 8  84324037.88047  20592786.578                    20592790.941
 128968229.301 6 100494767.02443  24541842.680                    24541850.418
 18  5  3  0  0 30.0000000  0 10G29G26G10G32G25G12G14G22G31G03
 127323296.018 6  99212976.52743  24228815.992                    24228823.188
 121432128.943 7  94622476.68644  23107762.406                    23107770.922
 120529400.307 6  93919069.24044  22935991.992                    22935999.969
 108003133.970 8  84158343.74647  20552320.172                    20552327.070
 110938661.709 7  86445744.53646  21110927.313                    21110934.602
 124928480.946 6  97346880.57244  23773101.453                    23773106.602
 108966894.494 8  84909273.31346  20735705.781                    20735710.340
 122042332.692 7  95097918.74044  23223882.086                    23223884.621
 108192492.076 8  84305861.60147  20588347.703                    20588352.207
 128879449.105 6 100425587.62943  24524947.906                    24524955.820
 18  5  3  0  1  0.0000000  0 10G29G26G10G32G25G12G14G22G31G03
 127243768.311 6  99151006.98343  24213682.430                    24213689.406
 121325437.411 7  94539340.44744  23087459.742                    23087468.039
 120635854.612 6  94002020.61244  22956249.578                    22956257.820
 108021804.252 8  84172892.00447  20555872.516                    20555880.035
 110982820.751 7  86480154.16746  21119330.289                    21119337.504
 125030377.091 7  97426280.12243  23792491.703                    23792497.125
 108931829.765 8  84881950.15646  20729033.047                    20729037.906
 121988761.933 7  95056175.29645  23213687.648                    23213691.027
 108169490.564 8  84287938.34547  20583970.898                    20583975.359
 128790982.400 6 100356652.59443  24508113.883                    24508121.996
 18  5  3  0  1 30.0000000  0 10G29G26G10G32G25G12G14G22G31G03
 127164412.415 6  99089171.21843  24198582.094                    24198588.004
 121218961.444 7  94456372.18244  23067198.156                    23067206.082
 120742495.368 7  94085117.28144  22976543.023                    22976551.121
 108040876.708 8  84187753.64547  20559502.008                    20559509.391
 111027547.136 7  86515005.88846  21127841.258                    21127848.914
 125132532.814 6  97505881.95643  23811931.227                    23811936.191
 108897050.035 8  84854849.06146  20722414.742                    20722419.465
 121935646.768 7  95014786.85244  23203579.961                    23203582.965
 108146812.986 8  84270267.50547  20579655.266                    20579659.945
 128702831.072 6 100287963.23143  24491339.211                    24491347.266
 18  5  3  0  2  0.0000000  0 10G29G26G10G32G25G12G14G22G31G03
 127085231.428 6  99027471.78343  24183514.227                    24183519.973
 121112702.992 7  94373573.40344  23046977.523                    23046986.305
 120849319.213 7  94168356.60744  22996870.570                    22996878.691
 108060351.430 8  84202928.74547  20563207.789                    20563214.758
 111072838.448 7  86550297.81046  21136459.977                    21136467.367
 125234945.063 6  97585683.65743  23831419.586                    23831425.176
 108862556.266 8  84827970.79646  20715850.977                    20715855.551
 121882988.083 7  94973754.11344  23193559.164                    23193562.227
 108124458.318 8  84252848.28347  20575401.602                    20575405.828
 128614997.283 6 100219521.33443  24474625.070                    24474632.281
 18  5  3  0  2 30.0000000  0 10G29G26G10G32G25G12G14G22G31G03
 127006228.357 6  98965911.03343  24168480.602                    24168487.355
 121006664.514 7  94290946.04844  23026799.281                    23026807.633
 120956323.360 6  94251736.42144  23017232.914                    23017240.832
 108080229.098 8  84218417.82247  20566990.789                    20566997.746
 111118692.759 7  86586028.43146  21145185.578                    21145193.457
 125337611.128 6  97665683.15743  23850956.336                    23850961.273
 108828349.670 7  84801316.30546  20709341.695                    20709345.887
 121830787.611 7  94933078.41544  23183625.758                    23183629.004
 108102425.848 8  84235680.12047  20571209.008                    20571213.301
 128527483.795 6 100151329.00043  24457971.273                    24457979.016
 18  5  3  0  3  0.0000000  0 10G29G26G10G32G25G12G14G22G31G03
 126927408.235 6  98904492.79743  24153481.141                    24153488.285
 120900850.011 7  94208493.21444  23006663.867                    23006672.367
 121063506.568 6  94335255.77544  23037629.641                    23037637.277
 108100511.891 8  84234222.58147  20570850.383                    20570857.613
 111165109.685 7  86622197.45446  21154018.859                    21154026.113
 125440529.581 6  97745879.31743  23870541.250                    23870546.469
 108794434.175 7  84774888.64746  20702887.773                    20702892.102
 121779048.649 7  94892762.31744  23173780.680                    23173782.957
 108080716.867 8  84218764.02547  20567077.469                    20567081.980
 128440294.663 6 100083389.43843  24441379.063                    24441388.152
 18  5  3  0  3 30.0000000  0 10G29G26G10G32G25G12G14G22G31G03
 126848772.078 6  98843217.88243  24138516.898                    24138523.680
 120795259.458 7  94126214.88344  22986569.930                    22986578.605
 121170863.523 6  94418910.51144  23058058.641                    23058066.855
 108121197.895 8  84250341.52947  20574786.680                    20574793.645
 111212084.699 8  86658801.35646  21162957.883                    21162965.414
 125543695.046 6  97826267.95643  23890173.023                    23890178.168
 108760808.584 8  84748686.88846  20696488.992                    20696493.492
 121727770.545 7  94852805.34544  23164022.586                    23164025.563
 108059328.194 8  84202097.52947  20563007.859                    20563012.066
 128353430.198 6 100015702.89143  24424849.430                    24424858.672
 18  5  3  0  4  0.0000000  0 10G29G26G10G32G25G12G14G22G31G03
 126770325.425 6  98782090.65743  24123589.367                    24123596.242
 120689897.670 7  94044114.81544  22966520.227                    22966529.086
 121278393.792 6  94502700.29244  23078521.297                    23078528.938
 108142290.194 8  84266777.07347  20578800.500                    20578807.434
 111259618.288 8  86695840.51346  21172003.398                    21172010.457
 125647107.311 6  97906848.88643  23909851.703                    23909856.453
 108727476.844 7  84722714.10946  20690146.258                    20690150.449
 121676957.236 7  94813210.56144  23154353.156                    23154356.152
 108038262.088 8  84185682.38047  20558999.047                    20559003.203
 128266895.359 6  99948273.10543  24408382.555                    24408390.711
 18  5  3  0  4 30.0000000  0 10G29G26G10G32G25G12G14G22G31G03
 126692069.263 6  98721111.88743  24108697.492                    24108704.184
 120584764.958 7  93962193.25445  22946514.297                    22946522.813
 121386092.467 6  94586621.30944  23099015.586                    23099023.449
 108163787.197 8  84283527.96847  20582891.008                    20582898.137
 111307706.291 7  86733311.67446  21181154.141                    21181161.371
 125750761.002 6  97987617.94643  23929576.438                    23929581.574
 108694438.383 7  84696969.85146  20683859.016                    20683863.402
 121626608.392 7  94773977.69944  23144771.578                    23144775.410
 108017515.941 8  84169516.55347  20555051.078                    20555055.262
 128180690.769 6  99881100.74643  24391977.609                    24391986.211
 18  5  3  0  5  0.0000000  0 10G29G26G10G32G25G12G14G22G31G03
 126614007.745 6  98660284.75643  24093843.125                    24093848.957
 120479864.838 7  93880452.92644  22926552.594                    22926561.320
 121493957.780 7  94670672.17144  23119541.898                    23119549.820
 108185690.572 8  84300595.51747  20587059.438                    20587066.434
 111356347.692 7  86771214.06446  21190410.219                    21190417.625
 125854654.523 6  98068573.87543  23949346.281                    23949351.383
 108661695.849 8  84671456.18746  20677628.930                    20677633.105
 121576726.589 7  94735108.76344  23135279.992                    23135282.711
 107997089.913 8  84153600.16347  20551164.266                    20551168.031
 128094820.037 6  99814188.51143  24375637.453                    24375645.457
 18  5  3  0  5 30.0000000  0 10G29G26G10G32G25G12G14G22G31G03
 126536144.373 6  98599612.02343  24079026.320                    24079032.473
 120375199.521 7  93798895.57544  22906635.078                    22906644.012
 121601986.732 6  94754850.52844  23140099.188                    23140107.129
 108208000.668 8  84317979.99847  20591304.500                    20591311.973
 111405540.264 7  86809545.93546  21199771.047                    21199778.547
 125958784.964 6  98149714.47943  23969162.172                    23969166.684
 108629250.744 8  84646174.28646  20671454.523                    20671458.906
 121527313.159 7  94696604.78844  23125876.680                    23125879.719
 107976983.561 8  84137932.87547  20547338.281                    20547342.496
 128009285.590 6  99747538.31143  24359361.414                    24359369.293
 18  5  3  0  6  0.0000000  0 10G29G26G10G32G25G12G14G22G31G03
 126458480.391 6  98539094.68443  24064246.695                    24064253.656
 120270769.689 7  93717521.70544  22886762.109                    22886771.500
 121710174.758 6  94839152.84544  23160686.352                    23160694.906
 108230716.379 8  84335680.54047  20595627.547                    20595634.203
 111455280.263 7  86848304.37246  21209236.414                    21209243.992
 126063147.654 6  98231036.00343  23989021.891                    23989027.313
 108597103.012 8  84621124.10546  20665336.703                    20665341.184
 121478368.137 7  94658465.81145  23116563.000                    23116565.426
 107957194.795 8  84122513.04847  20543572.508                    20543576.309
 127924088.387 6  99681150.92143  24343148.703                    24343156.508
 18  5  3  0  6 30.0000000  0 10G29G26G10G32G25G12G14G22G31G03
 126381021.482 6  98478737.11643  24049507.758                    24049513.957
 120166579.884 7  93636334.88444  22866935.484                    22866944.879
 121818521.155 6  94923578.56144  23181304.008                    23181312.359
 108253840.334 8  84353699.18647  20600027.633                    20600034.820
 111505567.686 7  86887489.37246  21218805.594                    21218813.320
 126167742.532 6  98312538.43443  24008926.055                    24008930.938
 108565256.274 8  84596308.47346  20659276.922                    20659281.008
 121429895.219 7  94620694.70345  23107338.820                    23107342.125
 107937725.263 8  84107341.97947  20539867.586                    20539871.734
 127839233.115 6  99615029.92943  24327001.859                    24327009.613
 18  5  3  0  7  0.0000000  0 10G29G26G10G32G25G12G14G22G31G03
 126303769.630 6  98418540.90843  24034806.844                    24034814.242
 120062631.312 7  93555336.03544  22847154.711                    22847163.961
 121927021.947 6  95008124.61244  23201951.484                    23201959.105
 108277371.869 8  84372035.43847  20604505.531                    20604512.918
 111556399.189 7  86927098.33346  21228478.563                    21228486.324
 126272564.518 6  98394217.88843  24028871.875                    24028877.977
 108533710.654 8  84571727.46746  20653273.547                    20653277.934
 121381894.440 7  94583291.48745  23098204.797                    23098207.738
 107918573.127 8  84092418.23947  20536222.969                    20536227.293
 127754721.212 6  99549176.52243  24310919.508                    24310927.355
 18  5  3  0  7 30.0000000  0 10G29G26G10G32G25G12G14G22G31G03
 126226729.017 6  98358509.31044  24020147.117                    24020153.559
 119958927.316 7  93474527.75544  22827420.945                    22827429.355
 122035675.221 6  95092789.45544  23222627.109                    23222635.016
 108301312.492 8  84390690.45347  20609061.531                    20609068.285
 111607773.675 7  86967130.40646  21238254.664                    21238262.266
 126377611.907 6  98476072.94043  24048861.906                    24048867.492
 108502469.122 8  84547383.41246  20647328.836                    20647332.836
 121334368.772 7  94546258.49945  23089160.891                    23089163.824
 107899738.902 8  84077742.21647  20532638.797                    20532643.000
 127670556.230 6  99483593.44143  24294903.203                    24294911.152
 18  5  3  0  8  0.0000000  0 10G29G26G10G32G25G12G14G22G31G03
 126149901.178 7  98298643.46944  24005526.516                    24005533.262
 119855468.620 7  93393910.61245  22807733.484                    22807742.125
 122144476.548 6  95177569.66744  23243331.320                    23243339.426
 108325661.034 8  84409663.32647  20613694.797                    20613701.680
 111659687.298 7  87007582.57846  21248133.758                    21248141.438
 126482880.683 6  98558100.50943  24068894.234                    24068899.465
 108471531.656 8  84523276.29346  20641441.398                    20641445.758
 121287318.004 7  94509595.56045  23080207.164                    23080209.734
 107881220.207 8  84063312.06247  20529114.797                    20529118.637
 127586739.127 6  99418281.42643  24278953.461                    24278960.684
 18  5  3  0  8 30.0000000  0 10G29G26G10G32G25G12G14G22G31G03
 126073290.464 6  98238946.84244  23990947.969                    23990954.938
 119752258.611 7  93313487.26845  22788093.445                    22788101.820
 122253424.060 6  95262463.79344  23264062.672                    23264071.703
 108350419.004 8  84428955.23647  20618406.156                    20618413.203
 111712138.941 7  87048453.98446  21258115.008                    21258122.539
 126588368.913 6  98640299.09443  24088968.508                    24088973.316
 108440900.651 8  84499407.97746  20635613.078                    20635617.145
 121240744.779 7  94473304.72644  23071344.773                    23071347.957
 107863017.533 8  84049128.16247  20525650.820                    20525655.168
 127503273.518 6  99353243.32643  24263070.148                    24263078.070
 18  5  3  0  9  0.0000000  0 10G29G26G10G32G25G12G14G22G31G03
 125996899.486 6  98179421.45944  23976411.258                    23976418.879
 119649298.874 7  93233258.93345  22768500.867                    22768509.246
 122362514.148 6  95347469.01144  23284822.797                    23284831.434
 108375586.094 8  84448565.94347  20623195.516                    20623202.199
 111765125.594 7  87089742.28746  21268197.734                    21268205.281
 126694073.095 6  98722665.92243  24109083.141                    24109088.043
 108410576.864 7  84475779.04946  20629841.945                    20629846.727
 121194649.609 7  94437386.39545  23062573.922                    23062576.074
 107845129.892 8  84035189.74347  20522247.367                    20522251.523
 127420161.148 6  99288480.47143  24247254.094                    24247261.926
 18  5  3  0  9 30.0000000  0 10G29G26G10G32G25G12G14G22G31G03
 125920733.282 6  98120071.18643  23961917.195                    23961923.859
 119546593.860 7  93153229.09345  22748956.266                    22748964.973
 122471746.082 6  95432584.75244  23305608.305                    23305616.875
 108401164.852 8  84468497.42247  20628062.906                    20628069.840
 111818647.170 7  87131447.41546  21278382.813                    21278390.254
 126799992.235 6  98805200.28843  24129238.383                    24129244.328
 108380563.799 7  84452392.23946  20624130.984                    20624135.605
 121149036.238 7  94401843.51245  23053893.461                    23053895.762
 107827558.726 8  84021497.92147  20518903.539                    20518907.938
 127337406.701 6  99223996.47143  24231506.055                    24231513.664
 18  5  3  0 10  0.0000000  0 10G29G26G10G32G25G12G14G22G31G03
 125844793.167 6  98060897.09143  23947466.117                    23947473.156
 119444143.657 7  93073397.79645  22729461.023                    22729469.254
 122581114.735 6  95517807.04744  23326421.086                    23326429.188
 108427153.488 8  84488748.29647  20633008.203                    20633015.371
 111872699.167 7  87173565.85346  21288668.539                    21288676.063
 126906121.425 6  98887898.29843  24149434.359                    24149439.668
 108350861.139 7  84429247.30846  20618478.883                    20618483.258
 121103903.481 7  94366675.11345  23045304.953                    23045307.012
 107810301.301 8  84008050.57847  20515619.773                    20515623.594
 127255010.516 6  99159791.64343  24215826.906                    24215834.121
 18  5  3  0 10 30.0000000  0 10G29G26G10G32G25G12G14G22G31G03
 125769082.692 7  98001901.97444  23933059.242                    23933066.137
 119341951.219 7  92993767.34545  22710014.250                    22710022.613
 122690617.944 6  95603134.18644  23347258.352                    23347266.816
 108453553.039 8  84509319.34947  20638031.898                    20638038.875
 111927279.970 7  87216096.34546  21299055.047                    21299062.563
 127012458.420 6  98970758.26343  24169669.578                    24169674.969
 108321470.830 7  84406345.76246  20612885.813                    20612890.473
 121059253.678 7  94331883.04845  23036808.836                    23036810.617
 107793357.703 8  83994847.77647  20512395.289                    20512399.613
 127172975.673 6  99095868.44443  24200216.211                    24200223.641
 18  5  3  0 11  0.0000000  0 10G29G26G10G32G25G12G14G22G31G03
 125693604.977 7  97943088.18543  23918696.203                    23918701.848
 119240018.585 7  92914339.34945  22690617.281                    22690625.488
 122800252.549 6  95688563.70644  23368121.195                    23368130.254
 108480363.666 8  84530210.73247  20643133.805                    20643140.930
 111982387.057 8  87259036.92946  21309541.867                    21309549.559
 127119000.140 6  99053777.75543  24189944.000                    24189949.277
 108292394.435 7  84383688.82746  20607352.797                    20607357.203
 121015087.744 7  94297468.03045  23028404.125                    23028406.387
 107776727.080 8  83981888.84647  20509230.492                    20509234.641
 127091304.464 6  99032228.54643  24184674.594                    24184682.086
 18  5  3  0 11 30.0000000  0 10G29G26G10G32G25G12G14G22G31G03
 125618363.566 6  97884458.54543  23904377.758                    23904384.793
 119138348.569 7  92835115.98445  22671269.492                    22671278.434
 122910016.100 6  95774093.70044  23389008.453                    23389017.535
 108507586.208 8  84551423.09047  20648314.094                    20648321.289
 112038018.576 7  87302386.15946  21320128.094                    21320135.324
 127225744.068 6  99136954.78642  24210256.438                    24210262.117
 108263633.523 7  84361277.72146  20601879.820                    20601884.035
 120971407.575 7  94263431.52444  23020091.734                    23020094.137
 107760409.169 8  83969173.59147  20506125.500                    20506129.789
 127009999.872 6  98968874.30743  24169203.266                    24169211.293
 18  5  3  0 12  0.0000000  0 10G29G26G10G32G25G12G14G22G31G03
 125543361.409 7  97826015.36943  23890104.906                    23890111.848
 119036943.064 7  92756098.71845  22651973.156                    22651981.711
 123019905.458 6  95859721.71144  23409920.180                    23409928.973
 108535220.668 8  84572956.41847  20653573.258                    20653580.000
 112094171.843 7  87346141.94546  21330813.398                    21330820.691
 127332687.213 6  99220287.05942  24230606.758                    24230612.645
 108235189.623 7  84339113.63946  20596467.031                    20596471.527
 120928214.295 7  94229774.41645  23011872.273                    23011874.535
 107744402.795 8  83956701.09247  20503079.438                    20503083.750
 126929064.025 6  98905807.42043  24153801.617                    24153809.559
 18  5  3  0 12 30.0000000  0 10G29G26G10G32G25G12G14G22G31G03
 125468601.279 7  97767760.73443  23875879.414                    23875885.832
 118935804.045 7  92677289.11945  22632727.086                    22632735.328
 123129917.362 6  95945445.22844  23430854.594                    23430863.281
 108563267.079 8  84594810.75047  20658909.875                    20658917.000
 112150844.185 7  87390302.20946  21341598.000                    21341605.676
 127439826.375 6  99303772.06342  24250995.000                    24251000.293
 108207063.643 7  84317197.29146  20591114.820                    20591119.363
 120885509.131 7  94196497.65445  23003745.672                    23003748.316
 107728707.602 8  83944471.06747  20500092.609                    20500096.961
 126848499.094 6  98843029.61043  24138470.344                    24138477.945
 18  5  3  0 13  0.0000000  0 10G29G26G10G32G25G12G14G22G31G03
 125394087.505 7  97709698.11343  23861698.977                    23861705.949
 118834934.918 7  92598689.80745  22613532.281                    22613540.801
 123240050.124 6  96031262.92144  23451812.078                    23451820.547
 108591726.940 8  84616987.25147  20664325.633                    20664333.289
 112208034.470 7  87434866.06146  21352480.680                    21352488.590
 127547159.500 6  99387408.21443  24271420.719                    24271425.445
 108179258.546 7  84295530.97646  20585823.523                    20585828.094
 120843294.208 7  94163602.91145  22995712.820                    22995714.797
 107713323.906 8  83932483.78047  20497165.102                    20497169.477
 126768308.737 6  98780543.58243  24123210.789                    24123218.660
 18  5  3  0 13 30.0000000  0 10G29G26G10G32G25G12G14G22G31G03
 125319822.298 7  97651829.16243  23847567.969                    23847573.359
 118734337.055 7  92520301.87245  22594388.914                    22594397.344
 123350299.999 6  96117171.88443  23472792.266                    23472800.836
 108620599.694 8  84639485.48747  20669820.063                    20669827.059
 112265739.364 7  87479830.90946  21363461.758                    21363469.109
 127654683.745 6  99471193.28743  24291880.672                    24291886.770
 108151774.900 7  84274115.14746  20580593.578                    20580598.547
 120801569.852 7  94131090.41144  22987772.938                    22987775.117
 107698250.113 8  83920737.96347  20494296.789                    20494301.219
 126688494.421 6  98718350.65243  24108022.836                    24108030.434
 18  5  3  0 14  0.0000000  0 10G29G26G10G32G25G12G14G22G31G03
 125245808.419 7  97594156.03943  23833482.523                    23833489.262
 118634011.720 7  92442126.29545  22575297.719                    22575305.688
 123460663.024 6  96203169.00844  23493793.820                    23493801.797
 108649884.613 8  84662304.90047  20675392.781                    20675399.746
 112323955.537 7  87525194.15946  21374539.727                    21374547.305
 127762394.395 6  99555123.63542  24312377.664                    24312383.332
 108124612.823 7  84252949.88647  20575424.766                    20575429.355
 120760336.231 7  94098960.31045  22979926.055                    22979928.496
 107683484.678 8  83909232.43447  20491486.828                    20491491.566
 126609057.697 7  98656451.91943  24092906.453                    24092913.801
 18  5  3  0 14 30.0000000  0 10G29G26G10G32G25G12G14G22G31G03
 125172050.080 7  97536682.05743  23819447.344                    23819454.051
 118533962.949 7  92364166.22345  22556259.063                    22556266.965
 123571138.167 6  96289253.49644  23514816.523                    23514824.840
 108679583.835 8  84685447.13447  20681044.063                    20681051.148
 112382682.289 7  87570955.26346  21385715.039                    21385722.727
 127870290.566 6  99639198.48842  24332909.281                    24332915.883
 108097775.976 7  84232038.05946  20570318.008                    20570322.770
 120719596.937 7  94067215.39345  22972174.117                    22972175.965
 107669028.745 8  83897968.07447  20488736.078                    20488740.480
 126530002.736 6  98594850.66043  24077862.547                    24077869.727
 18  5  3  0 15  0.0000000  0 10G29G26G10G32G25G12G14G22G31G03
 125098549.863 7  97479409.20143  23805460.531                    23805466.813
 118434192.013 7  92286422.63745  22537273.125                    22537280.910
 123681721.570 6  96375422.31344  23535859.703                    23535868.172
 108709696.647 8  84708911.65447  20686774.555                    20686781.492
 112441916.359 7  87617111.67246  21396986.875                    21396994.645
 127978368.584 6  99723415.10143  24353475.961                    24353482.129
 108071264.788 7  84211379.98246  20565273.281                    20565277.859
 120679351.790 7  94035855.53845  22964515.164                    22964517.734
 107654880.821 8  83886943.71847  20486043.398                    20486048.063
 126451331.073 6  98533548.06443  24062892.133                    24062899.832
 18  5  3  0 15 30.0000000  0 10G29G26G10G32G25G12G14G22G31G03
 125025311.253 7  97422340.18944  23791523.719                    23791530.574
 118334701.668 7  92208897.71545  22518341.047                    22518349.086
 123792410.962 6  96461673.74543  23556923.398                    23556931.242
 108740223.870 8  84732699.08947  20692583.984                    20692591.203
 112501655.779 7  87663661.86446  21408354.914                    21408362.563
 128086626.424 5  99807771.78842  24374076.953                    24374083.031
 108045081.489 7  84190977.40546  20560290.938                    20560295.254
 120639602.690 7  94004882.20845  22956951.070                    22956953.594
 107641040.847 8  83876159.32747  20483410.367                    20483414.777
 126373045.604 6  98472546.40943  24047994.836                    24048002.582
 18  5  3  0 16  0.0000000  0 10G29G26G10G32G25G12G14G22G31G03
 124952336.521 7  97365476.84143  23777636.305                    23777643.840
 118235493.348 7  92131592.53945  22499461.938                    22499470.766
 123903202.583 6  96548004.83444  23578006.469                    23578014.922
 108771164.945 8  84756809.01147  20698471.633                    20698478.270
 112561897.312 7  87710603.31646  21419818.961                    21419826.125
 128195060.068 5  99892265.45942  24394710.828                    24394717.191
 108019226.612 7  84170830.74547  20555370.773                    20555375.105
 120600349.891 7  93974295.60545  22949481.469                    22949484.047
 107627507.459 8  83865613.83647  20480834.789                    20480839.090
 126295148.016 6  98411847.01443  24033171.336                    24033178.449
 18  5  3  0 16 30.0000000  0 10G29G26G10G32G25G12G14G22G31G03
 124879629.988 7  97308822.42044  23763801.813                    23763807.852
 118136570.337 7  92054509.69145  22480637.922                    22480646.383
 124014094.652 6  96634414.18943  23599108.539                    23599116.676
 108802521.198 8  84781242.44247  20704438.680                    20704445.961
 112622639.578 7  87757934.94746  21431377.461                    21431384.938
 128303667.951 5  99976894.97842  24415379.164                    24415385.313
 107993702.649 7  84150941.94146  20550513.656                    20550518.344
 120561595.826 7  93944097.62845  22942106.719                    22942109.766
 107614280.642 8  83855307.22447  20478318.172                    20478322.480
 126217641.665 6  98351452.44543  24018422.250                    24018430.539
 18  5  3  0 17  0.0000000  0 10G29G26G10G32G25G12G14G22G31G03
 124807194.336 7  97252379.11144  23750016.813                    23750023.660
 118037934.392 7  91977650.52145  22461867.875                    22461876.656
 124125083.758 6  96720899.14843  23620229.266                    23620237.051
 108834292.447 8  84805999.24547  20710484.570                    20710491.355
 112683879.680 7  87805654.49746  21443031.102                    21443038.961
 128412446.979 5 100061657.79942  24436079.625                    24436084.336
 107968510.772 7  84131311.89846  20545719.781                    20545724.297
 120523341.108 7  93914288.75045  22934827.164                    22934829.754
 107601359.613 8  83845238.89147  20475858.977                    20475863.305
 126140528.639 6  98291364.42443  24003748.461                    24003755.828
 18  5  3  0 17 30.0000000  0 10G29G26G10G32G25G12G14G22G31G03
 124735033.207 7  97196149.68544  23736285.938                    23736291.465
 117939588.096 7  91901017.05545  22443153.344                    22443161.836
 124236167.618 6  96807457.95844  23641367.031                    23641376.723
 108866479.222 8  84831079.83347  20716609.477                    20716616.523
 112745615.467 7  87853760.29546  21454778.945                    21454786.563
 128521394.594 5 100146551.94942  24456811.070                    24456816.934
 107943652.882 7  84111942.10946  20540989.766                    20540993.930
 120485587.402 7  93884870.27945  22927642.914                    22927645.504
 107588744.226 8  83835408.72147  20473458.352                    20473463.070
 126063811.611 6  98231584.91543  23989149.609                    23989156.770
 18  5  3  0 18  0.0000000  0 10G29G26G10G32G25G12G14G22G31G03
 124663148.705 7  97140135.84944  23722606.133                    23722613.363
 117841532.553 7  91824610.13845  22424493.641                    22424502.379
 124347342.199 6  96894087.42943  23662523.898                    23662532.113
 108899080.712 8  84856483.57947  20722813.438                    20722820.566
 112807843.466 7  87902249.64446  21466620.797                    21466628.234
 128630506.831 5 100231574.41842  24477574.313                    24477579.574
 107919129.198 7  84092832.73546  20536323.086                    20536327.406
 120448334.492 7  93855842.03245  22920554.234                    22920557.035
 107576432.751 8  83825815.36447  20471115.523                    20471120.504
 125987491.911 6  98172115.02443  23974625.914                    23974634.066
 18  5  3  0 18 30.0000000  0 10G29G26G10G32G25G12G14G22G31G03
 124591545.019 7  97084340.80643  23708980.477                    23708986.551
 117743771.012 7  91748432.32145  22405890.406                    22405898.996
 124458605.703 6  96980786.19944  23683696.375                    23683704.891
 108932098.199 8  84882211.47847  20729096.570                    20729103.324
 112870562.119 7  87951121.31346  21478555.688                    21478563.102
 128739782.157 5 100316724.03842  24498368.922                    24498374.496
 107894942.467 7  84073985.93146  20531720.266                    20531724.594
 120411584.642 7  93827205.77145  22913561.008                    22913563.199
 107564425.582 8  83816459.13247  20468830.859                    20468835.219
 125911573.031 6  98112957.46243  23960179.570                    23960187.723
 18  5  3  0 19  0.0000000  0 11G29G26G10G32G25G12G16G14G22G31G03
 124520224.539 7  97028766.44144  23695408.398                    23695414.910
 117646305.413 7  91672485.11245  22387343.430                    22387351.672
 124569954.940 6  97067551.80944  23704885.828                    23704893.645
 108965531.513 8  84908263.39247  20735458.344                    20735465.773
 112933768.678 7  88000373.16946  21490583.664                    21490590.910
 128849217.652 5 100401998.33342  24519193.945                    24519199.344
 131626528.97815                  25047698.695
 107871093.892 7  84055402.61946  20527182.063                    20527186.070
 120375338.537 7  93798962.04145  22906662.891                    22906665.547
 107552721.796 8  83807339.30247  20466603.672                    20466607.938
 125836056.920 6  98054113.76343  23945810.078                    23945817.039
 18  5  3  0 19 30.0000000  0 11G29G26G10G32G25G12G16G14G22G31G03
 124449190.474 7  96973415.26444  23681891.031                    23681897.813
 117549137.786 7  91596770.08345  22368853.094                    22368861.594
 124681386.974 6  97154381.92444  23726090.234                    23726098.418
 108999380.781 8  84934639.43047  20741899.680                    20741906.914
 112997460.502 7  88050003.15046  21502703.672                    21502711.289
 128958810.011 5 100487394.90242  24540047.852                    24540053.734
 131504448.283 5                  25024468.547
 107847584.604 7  84037083.67946  20522708.500                    20522712.648
 120339597.380 7  93771111.79045  22899861.680                    22899864.410
 107541320.738 8  83798455.35947  20464434.172                    20464438.344
 125760945.935 6  97995585.72743  23931515.789                    23931523.527
 18  5  3  0 20  0.0000000  0 11G29G26G10G32G25G12G16G14G22G31G03
 124378445.776 7  96918289.55344  23668429.156                    23668435.184
 117452269.997 7  91521288.70645  22350419.953                    22350428.734
 124792898.708 6  97241274.15644  23747310.539                    23747318.211
 109033645.863 8  84961339.48047  20748420.094                    20748427.023
 113061634.820 7  88100009.10246  21514915.984                    21514923.250
 129068556.18415 100572911.41152  24560932.797                    24560938.121
 131382399.054 5                  25001243.758
 107824416.044 7  84019030.25646  20518299.922                    20518303.816
 120304361.548 7  93743655.28045  22893156.961                    22893159.473
 107530221.321 8  83789806.46347  20462322.016                    20462325.941
 125686242.111 6  97937374.97943  23917300.430                    23917308.113
 18  5  3  0 20 30.0000000  0 11G29G26G10G32G25G12G16G14G22G31G03
 124307994.409 7  96863392.41844  23655022.289                    23655029.277
 117355705.176 7  91446043.40545  22332044.570                    22332052.539
 124904488.149 6  97328226.91843  23768545.953                    23768552.414
 109068327.873 8  84988364.40347  20755020.250                    20755027.207
 113126289.965 7  88150389.72246  21527219.406                    21527226.684
 129178454.31415 100658546.05552  24581845.633                    24581851.711
 131260384.814 6 102280854.27052  24978025.773                    24978030.367
 107801590.375 7  84001244.01146  20513956.055                    20513960.598
 120269633.450 7  93716594.40945  22886548.594                    22886551.266
 107519423.683 8  83781392.71247  20460267.000                    20460271.414
 125611948.622 6  97879483.93643  23903163.102                    23903170.211
 18  5  3  0 21  0.0000000  0 11G29G26G10G32G25G12G16G14G22G31G03
 124237838.429 7  96808725.46844  23641671.945                    23641678.492
 117259444.365 7  91371034.99145  22313726.664                    22313734.992
 125016151.455 6  97415237.22244  23789794.219                    23789802.160
 109103425.841 8  85015713.45047  20761698.977                    20761706.250
 113191422.334 7  88201142.20746  21539613.117                    21539620.309
 129288501.73815 100744297.39052  24602786.672                    24602792.875
 131138406.678 5 102185806.41842  24954814.742                    24954818.891
 107779108.217 7  83983725.44346  20509677.594                    20509682.238
 120235412.866 7  93689929.01745  22880036.438                    22880039.031
 107508926.341 8  83773212.96247  20458269.742                    20458274.184
 125538066.939 6  97821913.78543  23889103.367                    23889111.168
 18  5  3  0 21 30.0000000  0 11G29G26G10G32G25G12G16G14G22G31G03
 124167981.512 7  96754291.53344  23628378.641                    23628385.355
 117163490.160 7  91296265.49345  22295466.891                    22295475.754
 125127886.138 6  97502303.16244  23811056.781                    23811064.598
 109138940.335 8  85043387.06547  20768457.266                    20768464.297
 113257029.759 7  88252264.85846  21552098.180                    21552105.422
 129398694.951 5 100830162.15942  24623755.977                    24623762.180
 131016467.611 5 102090788.97942  24931609.938                    24931615.098
 107756970.998 7  83966475.65346  20505464.992                    20505469.914
 120201701.077 7  93663660.08545  22873621.641                    22873624.344
 107498729.140 8  83765267.09947  20456329.227                    20456333.754
 125464599.650 6  97764666.55843  23875122.828                    23875130.820
 18  5  3  0 22  0.0000000  0 11G29G26G10G32G25G12G16G14G22G31G03
 124098426.478 7  96700092.84244  23615143.406                    23615149.410
 117067844.703 7  91221736.58145  22277265.945                    22277274.508
 125239689.445 6  97589422.58444  23832332.102                    23832339.625
 109174871.505 8  85071385.35947  20775294.719                    20775301.395
 113323109.764 7  88303755.75946  21564672.617                    21564680.148
 129509031.47515 100916138.63752  24644751.531                    24644758.309
 130894570.202 5 101995804.04742  24908413.648                    24908418.859
 107735180.899 7  83949496.35547  20501318.656                    20501322.863
 120168499.255 7  93637788.51445  22867303.125                    22867305.949
 107488831.381 8  83757554.56547  20454445.664                    20454450.066
 125391549.155 6  97707744.12043  23861222.164                    23861229.258
 18  5  3  0 22 30.0000000  0 11G29G26G10G32G25G12G16G14G22G31G03
 124029176.893 7  96646132.15444  23601965.250                    23601971.523
 116972510.454 7  91147450.17145  22259124.063                    22259132.621
 125351558.780 6  97676593.43943  23853619.344                    23853628.070
 109211219.755 8  85099708.65747  20782211.367                    20782218.355
 113389659.942 7  88355613.02946  21577337.172                    21577344.512
 129619508.654 5 101002224.72142  24665774.922                    24665781.676
 130772716.849 5 101900853.43842  24885225.938                    24885231.121
 107713739.604 7  83932788.84247  20497238.961                    20497243.352
 120135808.565 7  93612315.24245  22861081.984                    22861084.707
 107479232.842 8  83750075.18447  20452619.227                    20452623.414
 125318918.022 6  97651148.41543  23847401.086                    23847408.234
 18  5  3  0 23  0.0000000  0 11G29G26G10G32G25G12G16G14G22G31G03
 123960236.044 7  96592412.05344  23588846.609                    23588852.859
 116877489.815 7  91073408.12745  22241042.094                    22241050.617
 125463491.676 6  97763813.81643  23874921.172                    23874927.887
 109247985.473 8  85128357.25647  20789207.664                    20789214.820
 113456678.130 7  88407834.97646  21590090.281                    21590097.348
 129730124.57115 101088418.89252  24686825.320                    24686831.813
 130650910.245 5 101805939.16842  24862044.828                    24862052.281
 107692648.505 7  83916354.22446  20493224.906                    20493229.789
 120103630.298 7  93587241.24545  22854959.242                    22854962.125
 107469932.904 8  83742828.47147  20450849.539                    20450853.906
 125246708.848 6  97594881.55443  23833660.406                    23833667.250
 18  5  3  0 23 30.0000000  0 11G29G26G10G32G25G12G16G14G22G31G03
 123891606.288 7  96538934.31744  23575786.359                    23575792.719
 116782784.085 7  90999611.46945  22223020.609                    22223029.398
 125575484.496 6  97851080.89743  23896232.492                    23896239.828
 109285167.968 8  85157330.61047  20796283.477                    20796290.770
 113524160.891 7  88460418.93846  21602931.547                    21602939.063
 129840875.659 5 101174718.39042  24707900.375                    24707906.539
 130529152.235 5 101711062.87042  24838876.133                    24838882.430
 107671908.424 7  83900193.11547  20489278.641                    20489282.836
 120071964.372 7  93562566.49045  22848932.867                    22848936.383
 107460930.406 8  83735813.54647  20449136.406                    20449140.734
 125174923.058 6  97538944.60744  23819999.000                    23820006.898
 18  5  3  0 24  0.0000000  0 11G29G26G10G32G25G12G16G14G22G31G03
 123823290.294 7  96485701.10944  23562785.758                    23562792.582
 116688395.126 7  90926061.65745  22205058.711                    22205067.246
 125687534.124 6  97938392.27143  23917554.219                    23917561.754
 109322767.026 8  85186628.55947  20803438.492                    20803445.090
 113592105.297 7  88513362.62546  21615860.750                    21615868.551
 129951758.412 5 101261120.53643  24729000.500                    24729007.414
 130407444.793 5 101616225.91442  24815716.625                    24815721.266
 107651520.356 7  83884306.30346  20485398.750                    20485403.238
 120040811.606 7  93538291.62045  22843004.914                    22843007.398
 107452224.445 8  83729029.68047  20447479.938                    20447483.656
 125103562.758 6  97483339.16644  23806420.305                    23806427.766
 18  5  3  0 24 30.0000000  0 11G29G26G10G32G25G12G16G14G22G31G03
 123755292.483 7  96432715.82044  23549846.414                    23549852.961
 116594326.367 7  90852761.34145  22187158.133                    22187166.320
 125799639.068 6  98025746.72243  23938887.008                    23938895.051
 109360784.015 8  85216252.17347  20810672.656                    20810679.848
 113660510.121 7  88566665.06646  21628878.102                    21628885.648
 130062772.101 6 101347624.61942  24750125.336                    24750131.789
 130285791.452 5 101521431.09042  24792566.656                    24792572.078
 107631487.328 7  83868696.14646  20481586.820                    20481590.891
 120010174.297 7  93514418.36745  22837174.875                    22837177.813
 107443815.314 8  83722477.09647  20445879.516                    20445883.867
 125032631.429 6  97428068.02143  23792922.492                    23792930.141
 18  5  3  0 25  0.0000000  0 11G29G26G10G32G25G12G16G14G22G31G03
 123687613.599 7  96379979.04944  23536968.086                    23536974.098
 116500577.309 7  90779710.15045  22169318.367                    22169326.527
 125911793.951 6  98113140.08743  23960229.867                    23960237.559
 109399216.412 8  85246199.47347  20817985.906                    20817993.074
 113729370.120 7  88620322.20146  21641981.625                    21641989.223
 130173911.146 5 101434226.39342  24771275.063                    24771281.520
 130164192.204 5 101426678.42942  24769425.156                    24769432.164
 107611808.085 7  83853361.66446  20477841.313                    20477846.000
 119980050.563 7  93490945.31245  22831442.898                    22831445.414
 107435699.987 8  83716153.46647  20444335.039                    20444339.379
 124962128.812 6  97373130.90544  23779506.688                    23779514.109
 18  5  3  0 25 30.0000000  0 11G29G26G10G32G25G12G16G14G22G31G03
 123620259.982 6  96327495.73144  23524151.242                    23524157.594
 116407153.704 7  90706912.55245  22151540.633                    22151548.820
 126023999.581 6  98200572.99743  23981581.516                    23981589.754
 109438067.951 8  85276473.38347  20825379.234                    20825386.375
 113798686.325 7  88674334.81146  21655172.047                    21655179.586
 130285176.706 5 101520926.80742  24792447.852                    24792453.949
 130042653.230 5 101331972.82942  24746299.320                    24746304.301
 107592487.725 7  83838306.83247  20474165.094                    20474169.309
 119950444.773 7  93467875.86545  22825808.641                    22825811.285
 107427881.669 8  83710061.26247  20442847.242                    20442851.934
 124892060.746 6  97318532.43044  23766171.984                    23766180.195
 18  5  3  0 26  0.0000000  0 11G29G26G10G32G25G12G16G14G22G31G03
 123553231.571 6  96275265.83844  23511395.508                    23511402.121
 116314054.240 7  90634367.53045  22133824.203                    22133832.766
 126136249.838 6  98288040.68643  24002942.445                    24002950.367
 109477335.236 8  85307071.25047  20832851.414                    20832858.887
 113868452.763 7  88728698.26746  21668448.273                    21668455.207
 130396562.570 5 101607720.95042  24813643.813                    24813650.496
 129921173.54715 101237313.25852  24723182.320                    24723187.621
 107573524.401 7  83823530.21146  20470556.563                    20470561.027
 119921354.726 7  93445208.29345  22820273.313                    22820275.969
 107420356.273 8  83704197.31647  20441415.258                    20441419.734
 124822426.158 6  97264271.72444  23752922.070                    23752929.438
 18  5  3  0 26 30.0000000  0 11G29G26G10G32G25G12G16G14G22G31G03
 123486533.024 6  96223292.95944  23498703.797                    23498709.883
 116221282.957 7  90562078.24646  22116170.453                    22116179.133
 126248543.861 6  98375542.50843  24024310.414                    24024318.676
 109517020.318 8  85337994.67047  20840403.703                    20840410.703
 113938668.735 7  88783411.99546  21681810.125                    21681817.355
 130508068.122 5 101694608.35742  24834863.695                    24834869.047
 129799757.41215 101142703.29752  24700075.820                    24700082.648
 107554921.444 7  83809034.39546  20467016.594                    20467021.012
 119892782.947 7  93422944.55345  22814836.250                    22814839.250
 107413125.121 8  83698562.65147  20440039.305                    20440043.242
 124753229.212 6  97210352.03844  23739754.016                    23739761.500
 18  5  3  0 27  0.0000000  0 11G29G26G10G32G25G12G16G14G22G31G03
 123420167.879 6  96171579.89244  23486073.875                    23486080.855
 116128842.309 7  90490046.59346  22098579.867                    22098588.652
 126360879.259 6  98463076.52143  24045688.031                    24045695.813
 109557123.463 8  85369243.85647  20848034.813                    20848041.922
 114009331.904 7  88838474.19246  21695256.273                    21695264.180
 130619691.047 6 101781587.22942  24856105.008                    24856110.746
 129678407.69215 101048145.03652  24676984.109                    24676990.785
 107536680.486 7  83794820.65547  20463545.625                    20463549.961
 119864730.563 7  93401085.53845  22809498.031                    22809500.957
 107406187.764 8  83693156.92047  20438719.266                    20438723.539
 124684472.370 6  97156775.29444  23726669.953                    23726677.281
 18  5  3  0 27 30.0000000  0 11G29G26G10G32G25G12G16G14G22G31G03
 123354136.952 7  96120127.25244  23473508.805                    23473515.586
 116036732.082 7  90418272.40945  22081051.586                    22081060.090
 126473250.953 6  98550638.86643  24067070.609                    24067079.406
 109597642.535 8  85400817.13947  20855745.297                    20855752.539
 114080437.434 7  88893881.08846  21708787.719                    21708795.227
 130731426.782 6 101868653.93442  24877367.313                    24877373.195
 129557124.432 5 100953638.60942  24653904.383                    24653912.223
 107518800.918 7  83780888.52247  20460142.938                    20460147.180
 119837196.148 7  93379630.14045  22804259.148                    22804261.188
 107399541.546 8  83687978.04047  20437454.672                    20437458.852
 124616155.751 6  97103541.58244  23713669.195                    23713677.418
 18  5  3  0 28  0.0000000  0 11G29G26G10G32G25G12G16G14G22G31G03
 123288445.890 7  96068939.45844  23461008.875                    23461014.516
 115944956.981 7  90346759.36146  22063587.406                    22063595.980
 126585658.838 6  98638229.35443  24088461.922                    24088470.102
 109638580.053 8  85432716.48447  20863535.523                    20863542.688
 114151985.274 7  88949632.64246  21722403.094                    21722410.199
 130843274.970 6 101955808.30842  24898651.328                    24898656.859
 129435913.03615 100859188.06552  24630839.086                    24630845.348
 107501286.822 7  83767241.16847  20456810.297                    20456814.879
 119810183.198 7  93358581.07545  22799117.930                    22799121.227
 107393188.261 8  83683027.43347  20436245.328                    20436249.559
 124548284.052 6  97050654.57843  23700753.695                    23700761.715
 18  5  3  0 28 30.0000000  0 11G29G26G10G32G25G12G16G14G22G31G03
 123223099.022 6  96018019.84144  23448573.094                    23448579.652
 115853520.235 7  90275509.95746  22046187.359                    22046196.113
 126698101.268 6  98725846.79443  24109859.172                    24109867.551
 109679937.213 8  85464942.82847  20871405.641                    20871412.762
 114223973.924 7  89005727.68246  21736101.266                    21736109.070
 130955234.276 5 102043049.36542  24919956.086                    24919962.266
 129314776.882 5 100764796.26642  24607788.477                    24607793.707
 107484140.758 7  83753880.59546  20453547.836                    20453551.633
 119783693.556 7  93337939.77945  22794077.109                    22794080.074
 107387128.637 8  83678305.64347  20435092.320                    20435096.645
 124480860.739 6  96998116.92744  23687923.477                    23687931.191
 18  5  3  0 29  0.0000000  0 11G29G26G10G32G25G12G16G14G22G31G03
 123158094.462 6  95967366.97044  23436203.555                    23436209.410
 115762419.036 7  90204522.02746  22028851.297                    22028860.434
 126810570.701 6  98813485.26643  24131261.414                    24131269.348
 109721709.197 8  85497492.40447  20879354.656                    20879361.801
 114296395.954 7  89062160.41546  21749883.055                    21749890.645
 131067297.241 5 102130371.12842  24941280.828                    24941286.762
 129193713.618 5 100670461.28942  24584750.586                    24584756.355
 107467359.361 7  83740804.17546  20450354.125                    20450358.684
 119757722.846 7  93317702.85045  22789135.133                    22789138.109
 107381357.183 8  83673808.40847  20433993.844                    20433998.082
 124413883.123 6  96945926.59244  23675177.445                    23675185.813
 18  5  3  0 29 30.0000000  0 11G29G26G10G32G25G12G16G14G22G31G03
 123093436.546 6  95916984.23344  23423898.938                    23423905.883
 115671656.840 7  90133798.25346  22011579.688                    22011588.746
 126923065.800 6  98901143.71843  24152668.391                    24152677.211
 109763897.303 8  85530366.23847  20887382.477                    20887389.938
 114369250.033 7  89118929.81446  21763746.859                    21763754.289
 131179462.656 5 102217772.65842  24962625.273                    24962631.578
 129072727.096 5 100576186.02242  24561729.203                    24561733.340
 107450945.518 7  83728014.16546  20447230.367                    20447235.016
 119732273.746 7  93297872.38845  22784292.617                    22784295.145
 107375874.627 8  83669536.28747  20432951.031                    20432955.395
 124347354.782 6  96894086.29544  23662518.508                    23662526.699
 18  5  3  0 30  0.0000000  0 11G29G26G10G32G25G12G16G14G22G31G03
 123029129.089 6  95866874.54744  23411661.563                    23411667.949
 115581236.568 7  90063340.90345  21994372.938                    21994381.832
 127035584.685 6  98988820.72243  24174079.727                    24174088.539
 109806502.426 8  85563565.01947  20895490.336                    20895497.410
 114442534.431 7  89176034.52246  21777692.180                    21777699.875
 131291729.010 5 102305252.89442  24983988.367                    24983994.660
 128951820.661 5 100481973.25042  24538720.930                    24538725.680
 107434901.388 7  83715512.23946  20444177.359                    20444181.793
 119707347.558 7  93278449.38045  22779548.953                    22779551.582
 107370681.281 8  83665489.52347  20431962.383                    20431966.867
 124281278.734 6  96842598.49544  23649944.094                    23649952.332
 18  5  3  0 30 30.0000000  0 11G29G26G10G32G25G12G16G14G22G31G03
 122965175.224 7  95817040.42344  23399492.383                    23399498.570
 115491160.279 7  89993151.60646  21977232.359                    21977240.844
 127148124.667 6  99076514.16443  24195495.516                    24195504.180
 109849524.536 8  85597088.72247  20903677.070                    20903684.172
 114516246.489 7  89233472.47446  21791719.125                    21791726.559
 131404093.796 6 102392809.81042  25005371.938                    25005377.504
 128830997.020 5 100387825.00842  24515728.305                    24515733.238
 107419228.438 7  83703299.54446  20441195.359                    20441199.391
 119682944.798 7  93259434.22745  22774905.867                    22774908.398
 107365776.511 8  83661667.61847  20431029.047                    20431033.746
 124215657.194 6  96791464.83444  23637456.883                    23637465.262
 18  5  3  0 31  0.0000000  0 11G29G26G10G32G25G12G16G14G22G31G03
 122901578.309 6  95767484.41644  23387389.242                    23387395.852
 115401430.459 7  89923232.28246  21960157.852                    21960166.219
 127260683.524 6  99164222.30343  24216914.703                    24216923.539
 109892964.009 8  85630937.64947  20911943.383                    20911950.418
 114590383.985 7  89291241.93146  21805827.258                    21805834.695
 131516554.792 5 102480441.64342  25026772.148                    25026778.219
 128710259.006 5 100293743.50242  24492752.273                    24492757.371
 107403928.790 7  83691377.72846  20438283.977                    20438288.168
 119659066.791 7  93240827.99045  22770361.211                    22770364.328
 107361160.106 8  83658070.42347  20430150.750                    20430154.844
 124150492.734 6  96740687.36044  23625057.133                    23625064.941
 18  5  3  0 31 30.0000000  0 10G29G26G10G32G25G16G14G22G31G03
 122838340.698 6  95718208.39544  23375355.758                    23375362.641
 115312048.286 8  89853583.85246  21943148.727                    21943157.164
 127373257.591 6  99251942.27843  24238337.211                    24238346.125
 109936819.925 8  85665111.07747  20920288.773                    20920296.598
 114664943.459 7  89349340.21046  21820015.258                    21820022.699
 128589607.96515 100199729.73752  24469793.008                    24469798.492
 107389002.865 7  83679747.13146  20435443.273                    20435447.895
 119635713.226 7  93222630.39545  22765917.609                    22765920.613
 107356830.684 8  83654696.84747  20429326.859                    20429331.215
 124085786.643 6  96690267.01244  23612743.609                    23612751.695
 18  5  3  0 32  0.0000000  0 10G29G26G10G32G25G16G14G22G31G03
 122775465.809 7  95669215.01544  23363391.398                    23363397.191
 115223016.317 7  89784208.31146  21926206.570                    21926215.008
 127485844.813 6  99339672.54443  24259761.734                    24259770.555
 109981092.789 8  85699609.40047  20928713.594                    20928721.156
 114739922.713 7  89407765.58645  21834283.305                    21834290.730
 128469047.247 5 100105786.46542  24446850.742                    24446856.770
 107374452.589 7  83668409.25246  20432674.391                    20432678.551
 119612885.326 7  93204842.41345  22761573.195                    22761576.656
 107352788.316 8  83651546.95247  20428557.602                    20428561.813
 124021541.619 6  96640205.97944  23600518.438                    23600525.852
 18  5  3  0 32 30.0000000  0 10G29G26G10G32G25G16G14G22G31G03
 122712955.554 7  95620505.77144  23351496.000                    23351502.793
